[{"name": "Google Dockmill", "latitud": 53.33989334728329, "longitud": -6.237342953681946, "formattedAddress": ["4 Barrow St (at Dockmill)", "Dublin", "Dublin City", "Ireland"], "location": {"type": "Point", "coordinates": [53.33989334728329, -6.237342953681946]}}, {"name": "Airbnb Dublin", "latitud": 53.34143774659449, "longitud": -6.2310084439203415, "formattedAddress": ["The Watermarque Building, Bridge St", "Dublin", "Dublin City", "Ireland"], "location": {"type": "Point", "coordinates": [53.34143774659449, -6.2310084439203415]}}, {"name": "Zalando Tech Hub Dublin", "latitud": 53.34124869730543, "longitud": -6.23946168195496, "formattedAddress": ["3 Grand Canal Quay", "Dublin", "Dublin City", "Ireland"], "location": {"type": "Point", "coordinates": [53.34124869730543, -6.23946168195496]}}, {"name": "Marin Software", "latitud": 53.337864212177145, "longitud": -6.240726695867945, "formattedAddress": ["Mount St Lower", "Dublin", "Dublin City", "Ireland"], "location": {"type": "Point", "coordinates": [53.337864212177145, -6.240726695867945]}}, {"name": "VenueOne", "latitud": 53.341123249151835, "longitud": -6.241607666015625, "formattedAddress": ["Trinity Technology and Enterprise Campus", "Dublin", "Ireland"], "location": {"type": "Point", "coordinates": [53.341123249151835, -6.241607666015625]}}, {"name": "Airbnb Dublin", "latitud": 53.34410279542076, "longitud": -6.233043119524635, "formattedAddress": ["8 Hanover Quay", "Dublin", "Dublin City", "Ireland"], "location": {"type": "Point", "coordinates": [53.34410279542076, -6.233043119524635]}}, {"name": "Google Ireland", "latitud": 53.339834391738776, "longitud": -6.237133696332402, "formattedAddress": ["Barrow St", "Dublin", "Dublin City", "Ireland"], "location": {"type": "Point", "coordinates": [53.339834391738776, -6.237133696332402]}}, {"name": "Tripadvisor", "latitud": 53.345297273177295, "longitud": -6.235870364733072, "formattedAddress": ["Ireland"], "location": {"type": "Point", "coordinates": [53.345297273177295, -6.235870364733072]}}, {"name": "Facebook Research Lab", "latitud": 53.344515757462865, "longitud": -6.239744964718116, "formattedAddress": ["Ireland"], "location": {"type": "Point", "coordinates": [53.344515757462865, -6.239744964718116]}}, {"name": "Dublin Web Summit HQ", "latitud": 53.33611919240353, "longitud": -6.244674651582154, "formattedAddress": ["9 Herbert St", "Dublin 2", "Ireland"], "location": {"type": "Point", "coordinates": [53.33611919240353, -6.244674651582154]}}, {"name": "MongoDB, Inc", "latitud": 53.33213197652096, "longitud": -6.230106353759766, "formattedAddress": ["3rd Floor, 3 Shelbourne Buildings, Ballsbridge, Dublin 4", "Dublin", "Dublin City", "Ireland"], "location": {"type": "Point", "coordinates": [53.33213197652096, -6.230106353759766]}}, {"name": "Gilt", "latitud": 53.331867447654474, "longitud": -6.230795860182626, "formattedAddress": ["Ireland"], "location": {"type": "Point", "coordinates": [53.331867447654474, -6.230795860182626]}}, {"name": "Nordeus", "latitud": 53.34536519320416, "longitud": -6.242439497569462, "formattedAddress": ["4fl ESRI, Sir John Rogerson Quay", "Dublin", "Dublin City", "Ireland"], "location": {"type": "Point", "coordinates": [53.34536519320416, -6.242439497569462]}}, {"name": "PopdeemHQ", "latitud": 53.33292323332096, "longitud": -6.243753433227539, "formattedAddress": ["3rd Floor, St Martins House, Waterloo Rd", "Dublin", "Dublin City", "Ireland"], "location": {"type": "Point", "coordinates": [53.33292323332096, -6.243753433227539]}}, {"name": "Twitter EMEA HQ", "latitud": 53.34186629767482, "longitud": -6.248227357864379, "formattedAddress": ["26 Fenian St", "Dublin", "Dublin City", "Ireland"], "location": {"type": "Point", "coordinates": [53.34186629767482, -6.248227357864379]}}, {"name": "HubSpot Dublin", "latitud": 53.347719116809685, "longitud": -6.241439142821454, "formattedAddress": ["Guild Street (1 Dockland Central)", "Dublin", "Ireland"], "location": {"type": "Point", "coordinates": [53.347719116809685, -6.241439142821454]}}, {"name": "Bonkers.ie HQ", "latitud": 53.336303, "longitud": -6.24967, "formattedAddress": ["9 Upper Fitzwilliam Street (Lower Baggot Street)", "Dublin 2", "Ireland"], "location": {"type": "Point", "coordinates": [53.336303, -6.24967]}}, {"name": "AIG (IFSC)", "latitud": 53.347917, "longitud": -6.241354, "formattedAddress": ["Ireland"], "location": {"type": "Point", "coordinates": [53.347917, -6.241354]}}, {"name": "AdRoll", "latitud": 53.33235389212359, "longitud": -6.245637145031675, "formattedAddress": ["Burlington Plaza (Burlington Road Level 6)", "Dublin", "Dublin City", "Ireland"], "location": {"type": "Point", "coordinates": [53.33235389212359, -6.245637145031675]}}, {"name": "Groupon International (GRINT)", "latitud": 53.332503636428704, "longitud": -6.24718537752928, "formattedAddress": ["Connaught House, Number 1 Burlington Rd", "Dublin", "Dublin City", "Ireland"], "location": {"type": "Point", "coordinates": [53.332503636428704, -6.24718537752928]}}, {"name": "Rentview", "latitud": 53.34983403858358, "longitud": -6.23248815536499, "formattedAddress": ["The Liffey Trust Centre, North Wall (Castleforbes Road)", "Dublin", "Dublin City", "Ireland"], "location": {"type": "Point", "coordinates": [53.34983403858358, -6.23248815536499]}}, {"name": "Autodesk Ireland", "latitud": 53.345732, "longitud": -6.246221, "formattedAddress": ["Dublin", "Ireland"], "location": {"type": "Point", "coordinates": [53.345732, -6.246221]}}, {"name": "Laser Huts", "latitud": 53.34378791484709, "longitud": -6.252379417419434, "formattedAddress": ["Trinity College SNIAM", "Dublin", "Dublin City", "Ireland"], "location": {"type": "Point", "coordinates": [53.34378791484709, -6.252379417419434]}}, {"name": "Blueface", "latitud": 53.348559556279795, "longitud": -6.246913075447082, "formattedAddress": ["10/11 Exchange Place (IFSC)", "Dublin", "Dublin City", "Ireland"], "location": {"type": "Point", "coordinates": [53.348559556279795, -6.246913075447082]}}, {"name": "Axonista Central", "latitud": 53.34208541530647, "longitud": -6.253985271975772, "formattedAddress": ["15-17 South Leinster St.", "Dublin 2", "Ireland"], "location": {"type": "Point", "coordinates": [53.34208541530647, -6.253985271975772]}}, {"name": "FuriousTribeHQ", "latitud": 53.338069, "longitud": -6.254884, "formattedAddress": ["Ireland"], "location": {"type": "Point", "coordinates": [53.338069, -6.254884]}}, {"name": "Pivotal Dublin", "latitud": 53.349210089761264, "longitud": -6.247680844827831, "formattedAddress": ["1 Custom House Quay", "Dublin", "Dublin City", "Ireland"], "location": {"type": "Point", "coordinates": [53.349210089761264, -6.247680844827831]}}, {"name": "Intercom", "latitud": 53.339527313774596, "longitud": -6.257363625734478, "formattedAddress": ["Stephen Court, 18-21 St Stephen's Green", "Dublin", "Dublin City", "Ireland"], "location": {"type": "Point", "coordinates": [53.339527313774596, -6.257363625734478]}}, {"name": "New Relic", "latitud": 53.34278766904076, "longitud": -6.257803829055093, "formattedAddress": ["Ireland"], "location": {"type": "Point", "coordinates": [53.34278766904076, -6.257803829055093]}}, {"name": "Zendesk International Ltd", "latitud": 53.33172658096112, "longitud": -6.256474274438375, "formattedAddress": ["55 Charlemont Place", "Dublin", "Ireland"], "location": {"type": "Point", "coordinates": [53.33172658096112, -6.256474274438375]}}, {"name": "iQ Content", "latitud": 53.34130249138193, "longitud": -6.2620976484728565, "formattedAddress": ["34 -37 Clarendon St.", "Dublin", "Dublin City", "Ireland"], "location": {"type": "Point", "coordinates": [53.34130249138193, -6.2620976484728565]}}, {"name": "Qualtrics", "latitud": 53.34059478003897, "longitud": -6.262495871633291, "formattedAddress": ["1 Clarendon Row", "Dublin", "Dublin City", "Ireland"], "location": {"type": "Point", "coordinates": [53.34059478003897, -6.262495871633291]}}, {"name": "Dropbox EMEA HQ", "latitud": 53.33389201362022, "longitud": -6.261278111653285, "formattedAddress": ["Dublin", "Dublin City", "Ireland"], "location": {"type": "Point", "coordinates": [53.33389201362022, -6.261278111653285]}}, {"name": "Slack EMEA HQ", "latitud": 53.334000652337835, "longitud": -6.261790828891876, "formattedAddress": ["One Park Place", "Ireland"], "location": {"type": "Point", "coordinates": [53.334000652337835, -6.261790828891876]}}, {"name": "Fullstack HQ", "latitud": 53.341557440161665, "longitud": -6.262956372778334, "formattedAddress": ["27 S William St", "Dublin", "Dublin City", "Ireland"], "location": {"type": "Point", "coordinates": [53.341557440161665, -6.262956372778334]}}, {"name": "Wrike Ireland Ltd", "latitud": 53.335883108364115, "longitud": -6.262764930725098, "formattedAddress": ["80 Harcourt Street", "Dublin", "Dublin City", "Ireland"], "location": {"type": "Point", "coordinates": [53.335883108364115, -6.262764930725098]}}, {"name": "mods and rockers", "latitud": 53.34478308508418, "longitud": -6.263848692691444, "formattedAddress": ["25 Temple Lane South (Dame Street)", "Dublin", "Dublin City", "Ireland"], "location": {"type": "Point", "coordinates": [53.34478308508418, -6.263848692691444]}}, {"name": "Just-Eat.ie HQ", "latitud": 53.350167370168506, "longitud": -6.260343938878758, "formattedAddress": ["173 Ivy Exchange (Granby Place)", "Dublin", "Dublin City", "Ireland"], "location": {"type": "Point", "coordinates": [53.350167370168506, -6.260343938878758]}}, {"name": "Squarespace Dublin", "latitud": 53.341372215717136, "longitud": -6.267592369392149, "formattedAddress": ["Le Pole House (Shii Street Great)", "Dublin", "Dublin City", "Ireland"], "location": {"type": "Point", "coordinates": [53.341372215717136, -6.267592369392149]}}, {"name": "Version 1", "latitud": 53.34731576023995, "longitud": -6.265530693493079, "formattedAddress": ["Millennium House (Millennium Walkway)", "Dublin", "Dublin City", "Ireland"], "location": {"type": "Point", "coordinates": [53.34731576023995, -6.265530693493079]}}, {"name": "Joe.ie & Her.ie Offices", "latitud": 53.336726990397814, "longitud": -6.274424861406845, "formattedAddress": ["Ireland"], "location": {"type": "Point", "coordinates": [53.336726990397814, -6.274424861406845]}}, {"name": "productful.com", "latitud": 53.339123749425454, "longitud": -6.280141597431135, "formattedAddress": ["26 Brabazon Hall (Cork Street)", "Dublin", "Dublin City", "Ireland"], "location": {"type": "Point", "coordinates": [53.339123749425454, -6.280141597431135]}}]