[{"name": "Oscars English School", "latitud": 53.34421435925228, "longitud": -6.263200257387125, "formattedAddress": ["33-34 Dame St", "Dublin", "Dublin City", "Ireland"], "location": {"type": "Point", "coordinates": [-6.263200257387125, 53.34421435925228]}}, {"name": "Atlas Language School", "latitud": 53.33006106140623, "longitud": -6.264892143170637, "formattedAddress": ["S Richmond St", "Dublin", "Dublin City", "Ireland"], "location": {"type": "Point", "coordinates": [-6.264892143170637, 53.33006106140623]}}, {"name": "ULearn English School Dublin", "latitud": 53.33660541483585, "longitud": -6.262977340225007, "formattedAddress": ["89 Harcourt  Street", "Dublin", "Dublin City", "Ireland"], "location": {"type": "Point", "coordinates": [-6.262977340225007, 53.33660541483585]}}, {"name": "Delfin English School", "latitud": 53.35349104434612, "longitud": -6.262041520977369, "formattedAddress": ["2 Parnell Square East", "Dublin", "Dublin City", "Ireland"], "location": {"type": "Point", "coordinates": [-6.262041520977369, 53.35349104434612]}}, {"name": "Horner School of English", "latitud": 53.33659681559401, "longitud": -6.24915733973135, "formattedAddress": ["80 Fitzwilliam St", "Dublin", "Dublin City", "Ireland"], "location": {"type": "Point", "coordinates": [-6.24915733973135, 53.33659681559401]}}, {"name": "EF International Language Centres", "latitud": 53.334935066715836, "longitud": -6.252814187074298, "formattedAddress": ["29-30 Fitzwilliam Sq S", "Dublin", "Dublin City", "Ireland"], "location": {"type": "Point", "coordinates": [-6.252814187074298, 53.334935066715836]}}, {"name": "Berlitz", "latitud": 53.3416903415523, "longitud": -6.250493795543195, "formattedAddress": ["Ireland"], "location": {"type": "Point", "coordinates": [-6.250493795543195, 53.3416903415523]}}, {"name": "Star of the Sea B.N.S.", "latitud": 53.33622783907984, "longitud": -6.218359969977954, "formattedAddress": ["Leahy's Tce, Sandymount", "Dublin", "Dublin City", "Ireland"], "location": {"type": "Point", "coordinates": [-6.218359969977954, 53.33622783907984]}}, {"name": "Kaplan International Colleges", "latitud": 53.345182187269835, "longitud": -6.268933925436109, "formattedAddress": ["The Presbytery Building, 7 Exchange St Lower", "Dublin", "Dublin City", "Ireland"], "location": {"type": "Point", "coordinates": [-6.268933925436109, 53.345182187269835]}}, {"name": "ISI - English School", "latitud": 53.347582992908656, "longitud": -6.269233708200506, "formattedAddress": ["4 Meetinghouse Ln, Mary's Abbey", "Dublin", "Dublin City", "Ireland"], "location": {"type": "Point", "coordinates": [-6.269233708200506, 53.347582992908656]}}, {"name": "Alpha College of English", "latitud": 53.35503060118229, "longitud": -6.261654857199284, "formattedAddress": ["4 N Great George's St", "Dublin", "Dublin City", "Ireland"], "location": {"type": "Point", "coordinates": [-6.261654857199284, 53.35503060118229]}}, {"name": "Alliance Fran\u00e7aise", "latitud": 53.34212898219179, "longitud": -6.254394355610989, "formattedAddress": ["1, Kildare Street (Nassau Street)", "Dublin", "Dublin City", "Ireland"], "location": {"type": "Point", "coordinates": [-6.254394355610989, 53.34212898219179]}}, {"name": "The Linguaviva Centre", "latitud": 53.333025743249465, "longitud": -6.253924369812012, "formattedAddress": ["45 Lower Leeson Street", "Dublin", "Dublin City", "Ireland"], "location": {"type": "Point", "coordinates": [-6.253924369812012, 53.333025743249465]}}, {"name": "Loreto Junior School", "latitud": 53.336945, "longitud": -6.256788935794907, "formattedAddress": ["St Stephens Green", "Dublin", "Dublin City", "Ireland"], "location": {"type": "Point", "coordinates": [-6.256788935794907, 53.336945]}}, {"name": "Liffey College", "latitud": 53.34170347046905, "longitud": -6.275641772467993, "formattedAddress": ["1-4 Swift's Alley", "Dublin", "Dublin City", "Ireland"], "location": {"type": "Point", "coordinates": [-6.275641772467993, 53.34170347046905]}}, {"name": "ibat College", "latitud": 53.34565196380367, "longitud": -6.265669702062497, "formattedAddress": ["Dublin", "Dublin City", "Ireland"], "location": {"type": "Point", "coordinates": [-6.265669702062497, 53.34565196380367]}}, {"name": "International House", "latitud": 53.352818040335606, "longitud": -6.250404266737426, "formattedAddress": ["3 Harbourmaster Pl.", "Dublin", "Dublin City", "Ireland"], "location": {"type": "Point", "coordinates": [-6.250404266737426, 53.352818040335606]}}, {"name": "OHC", "latitud": 53.35056089630498, "longitud": -6.269544724187393, "formattedAddress": ["Zhivago Building, 73 Capel St", "Dublin", "Dublin City", "Ireland"], "location": {"type": "Point", "coordinates": [-6.269544724187393, 53.35056089630498]}}, {"name": "Paul Lanigan - Sandler Training", "latitud": 53.35804360921297, "longitud": -6.228389739990234, "formattedAddress": ["Clontarf", "Dublin", "Dublin City", "Ireland"], "location": {"type": "Point", "coordinates": [-6.228389739990234, 53.35804360921297]}}, {"name": "CES", "latitud": 53.34366489579382, "longitud": -6.263823977748151, "formattedAddress": ["15-16 Dame Court", "Dublin", "Dublin City", "Ireland"], "location": {"type": "Point", "coordinates": [-6.263823977748151, 53.34366489579382]}}, {"name": "St Mary's College", "latitud": 53.32739911129248, "longitud": -6.267081699050448, "formattedAddress": ["73-79 Lwr Rathmines Rd", "Dublin", "Dublin City", "Ireland"], "location": {"type": "Point", "coordinates": [-6.267081699050448, 53.32739911129248]}}, {"name": "Trinity Biomedical Sciences Institute", "latitud": 53.34373629708807, "longitud": -6.247618802729551, "formattedAddress": ["Pearse St", "Dublin", "Dublin City", "Ireland"], "location": {"type": "Point", "coordinates": [-6.247618802729551, 53.34373629708807]}}, {"name": "International Education Academy", "latitud": 53.35221303889025, "longitud": -6.267257283113832, "formattedAddress": ["41 Dominick St Lwr", "Dublin", "Dublin City", "Ireland"], "location": {"type": "Point", "coordinates": [-6.267257283113832, 53.35221303889025]}}, {"name": "American College Dublin", "latitud": 53.34127652306182, "longitud": -6.250260517220014, "formattedAddress": ["2 Merrion Sq N", "Dublin", "Dublin City", "Ireland"], "location": {"type": "Point", "coordinates": [-6.250260517220014, 53.34127652306182]}}, {"name": "Centre of English Studies", "latitud": 53.343663628844574, "longitud": -6.263813606609632, "formattedAddress": ["31 Dame St", "Dublin", "Dublin City", "Ireland"], "location": {"type": "Point", "coordinates": [-6.263813606609632, 53.343663628844574]}}, {"name": "St Conleth's College", "latitud": 53.32801044202312, "longitud": -6.240218334665652, "formattedAddress": ["28 Clyde Rd.", "Dublin", "Dublin City", "Ireland"], "location": {"type": "Point", "coordinates": [-6.240218334665652, 53.32801044202312]}}, {"name": "Catholic University School", "latitud": 53.33549667164036, "longitud": -6.255057896658783, "formattedAddress": ["Lwr Leeson St", "Dublin", "Dublin City", "Ireland"], "location": {"type": "Point", "coordinates": [-6.255057896658783, 53.33549667164036]}}, {"name": "The Institute of Education", "latitud": 53.3351908465303, "longitud": -6.25492802668536, "formattedAddress": ["85 Leeson St", "Dublin", "Dublin City", "Ireland"], "location": {"type": "Point", "coordinates": [-6.25492802668536, 53.3351908465303]}}, {"name": "Piccola Accademia di Italiano", "latitud": 53.335892718013504, "longitud": -6.257199347019196, "formattedAddress": ["1 Lwr Leeson St", "Dublin", "Dublin City", "Ireland"], "location": {"type": "Point", "coordinates": [-6.257199347019196, 53.335892718013504]}}, {"name": "Berkeley Library", "latitud": 53.34361739975458, "longitud": -6.256230288851449, "formattedAddress": ["Trinity College", "Dublin", "Dublin City", "Ireland"], "location": {"type": "Point", "coordinates": [-6.256230288851449, 53.34361739975458]}}, {"name": "Swan Training Institute", "latitud": 53.342785446303715, "longitud": -6.259639446689852, "formattedAddress": ["11 Grafton St", "Dublin", "Dublin City", "Ireland"], "location": {"type": "Point", "coordinates": [-6.259639446689852, 53.342785446303715]}}, {"name": "Dublin Cultural Institute", "latitud": 53.3474191299928, "longitud": -6.259494899589265, "formattedAddress": ["34 A Bachelor' Walk, Dublin 1", "Dublin", "Dublin City", "Ireland"], "location": {"type": "Point", "coordinates": [-6.259494899589265, 53.3474191299928]}}, {"name": "SEDA College", "latitud": 53.35025024859676, "longitud": -6.269268732317438, "formattedAddress": ["68-72 Capel St", "Dublin", "Dublin City", "Ireland"], "location": {"type": "Point", "coordinates": [-6.269268732317438, 53.35025024859676]}}, {"name": "Everest Language School", "latitud": 53.34632985059277, "longitud": -6.259305609741719, "formattedAddress": ["15 Westmoreland St", "Dublin", "Dublin City", "Ireland"], "location": {"type": "Point", "coordinates": [-6.259305609741719, 53.34632985059277]}}, {"name": "Leinster College", "latitud": 53.33567959088766, "longitud": -6.263332111401354, "formattedAddress": ["Clarendon Stree", "Dublin", "Dublin City", "Ireland"], "location": {"type": "Point", "coordinates": [-6.263332111401354, 53.33567959088766]}}, {"name": "Central School of English", "latitud": 53.35030795695784, "longitud": -6.257357597351074, "formattedAddress": ["5 Talbot St", "Dublin", "Dublin City", "Ireland"], "location": {"type": "Point", "coordinates": [-6.257357597351074, 53.35030795695784]}}, {"name": "Marino College of Further Education", "latitud": 53.35487724984512, "longitud": -6.24638295064081, "formattedAddress": ["171 North Strand Rd.", "Dublin", "Dublin City", "Ireland"], "location": {"type": "Point", "coordinates": [-6.24638295064081, 53.35487724984512]}}, {"name": "Frances King English School", "latitud": 53.34005382422702, "longitud": -6.247407495647452, "formattedAddress": ["Dublin", "Dublin City", "Ireland"], "location": {"type": "Point", "coordinates": [-6.247407495647452, 53.34005382422702]}}, {"name": "Synge Street CBS", "latitud": 53.333515286639916, "longitud": -6.26694309595204, "formattedAddress": ["Synge St", "Dublin", "Dublin City", "Ireland"], "location": {"type": "Point", "coordinates": [-6.26694309595204, 53.333515286639916]}}, {"name": "English in Dublin School", "latitud": 53.338297903103644, "longitud": -6.248052504891251, "formattedAddress": ["53-87 Merrion Sq S", "Dublin", "Dublin City", "Ireland"], "location": {"type": "Point", "coordinates": [-6.248052504891251, 53.338297903103644]}}, {"name": "Art, Design & Printing @ DIT", "latitud": 53.35578645509017, "longitud": -6.256923079490661, "formattedAddress": ["41 Mountjoy Sq", "Dublin", "Dublin City", "Ireland"], "location": {"type": "Point", "coordinates": [-6.256923079490661, 53.35578645509017]}}, {"name": "Apollo Language Centre", "latitud": 53.335513455560296, "longitud": -6.248917222055752, "formattedAddress": ["5 Lad Lane", "Dublin", "Ireland"], "location": {"type": "Point", "coordinates": [-6.248917222055752, 53.335513455560296]}}, {"name": "St. Enda's Primary School", "latitud": 53.34029186794695, "longitud": -6.267564007082011, "formattedAddress": ["Whitefriars St", "Dublin", "Dublin City", "Ireland"], "location": {"type": "Point", "coordinates": [-6.267564007082011, 53.34029186794695]}}, {"name": "Atlantic Language", "latitud": 53.344617703356015, "longitud": -6.24813785445613, "formattedAddress": ["Magennis Place, Magennis Court", "Dublin", "Dublin City", "Ireland"], "location": {"type": "Point", "coordinates": [-6.24813785445613, 53.344617703356015]}}, {"name": "Travelling Languages - Language School", "latitud": 53.34158445320748, "longitud": -6.251928806304931, "formattedAddress": ["6 Clare St", "Dublin", "Dublin City", "Ireland"], "location": {"type": "Point", "coordinates": [-6.251928806304931, 53.34158445320748]}}, {"name": "Goethe-Institut", "latitud": 53.335862287449665, "longitud": -6.251446008682251, "formattedAddress": ["37 Merrion Sq", "Dublin", "Dublin City", "Ireland"], "location": {"type": "Point", "coordinates": [-6.251446008682251, 53.335862287449665]}}, {"name": "St. Michaels College Junior School", "latitud": 53.31893822923416, "longitud": -6.2163967799107525, "formattedAddress": ["Dublin City", "Dublin City", "Ireland"], "location": {"type": "Point", "coordinates": [-6.2163967799107525, 53.31893822923416]}}, {"name": "NED Training Centre", "latitud": 53.35237072920126, "longitud": -6.267529145092467, "formattedAddress": ["40 Lower Dominick St", "Dublin 1", "Ireland"], "location": {"type": "Point", "coordinates": [-6.267529145092467, 53.35237072920126]}}, {"name": "Gonzaga", "latitud": 53.316242, "longitud": -6.248727, "formattedAddress": ["Sandford Close, Ranelagh", "Dublin", "Dublin City", "Ireland"], "location": {"type": "Point", "coordinates": [-6.248727, 53.316242]}}, {"name": "Erin School of English", "latitud": 53.34358294647466, "longitud": -6.264653205871582, "formattedAddress": ["22 Dame St", "Dublin", "Dublin City", "Ireland"], "location": {"type": "Point", "coordinates": [-6.264653205871582, 53.34358294647466]}}, {"name": "Mount Temple Comprehensive School", "latitud": 53.369001419141696, "longitud": -6.2218870955321455, "formattedAddress": ["Malahide Rd", "Clontarf", "Ireland"], "location": {"type": "Point", "coordinates": [-6.2218870955321455, 53.369001419141696]}}, {"name": "Infinity English College", "latitud": 53.340320386064406, "longitud": -6.258845197106127, "formattedAddress": ["Dawson St", "Dublin", "Dublin City", "Ireland"], "location": {"type": "Point", "coordinates": [-6.258845197106127, 53.340320386064406]}}, {"name": "English Language Tutorial Academy (ELTA)", "latitud": 53.34742185077181, "longitud": -6.2568783852833185, "formattedAddress": ["11 Burgh Quay", "Dublin", "Dublin City", "Ireland"], "location": {"type": "Point", "coordinates": [-6.2568783852833185, 53.34742185077181]}}, {"name": "The English Academy", "latitud": 53.34731604692676, "longitud": -6.257371298901247, "formattedAddress": ["Ireland"], "location": {"type": "Point", "coordinates": [-6.257371298901247, 53.34731604692676]}}, {"name": "Trinity College", "latitud": 53.3441988069838, "longitud": -6.257963465659788, "formattedAddress": ["College Green", "Dublin", "Dublin City", "Ireland"], "location": {"type": "Point", "coordinates": [-6.257963465659788, 53.3441988069838]}}, {"name": "EnglisHour\ud83d\udcda", "latitud": 53.34868, "longitud": -6.258832, "formattedAddress": ["Ireland"], "location": {"type": "Point", "coordinates": [-6.258832, 53.34868]}}, {"name": "ATC Language & Travel", "latitud": 53.34117679929994, "longitud": -6.263448081615888, "formattedAddress": ["Ireland"], "location": {"type": "Point", "coordinates": [-6.263448081615888, 53.34117679929994]}}, {"name": "Smart-Edulink", "latitud": 53.3569, "longitud": -6.25235, "formattedAddress": ["35 Summerstreet, Dublin 1", "North City", "Dublin City", "Ireland"], "location": {"type": "Point", "coordinates": [-6.25235, 53.3569]}}, {"name": "Emerald Cultural Institute", "latitud": 53.3138911518022, "longitud": -6.259027989104673, "formattedAddress": ["10 Palmerston Pk", "Dublin", "Dublin City", "Ireland"], "location": {"type": "Point", "coordinates": [-6.259027989104673, 53.3138911518022]}}, {"name": "The International School of English  (ISE)", "latitud": 53.335702464327085, "longitud": -6.263450035972092, "formattedAddress": ["26 Harcourt St", "Dublin", "Dublin City", "Ireland"], "location": {"type": "Point", "coordinates": [-6.263450035972092, 53.335702464327085]}}, {"name": "NCAD", "latitud": 53.34381777011789, "longitud": -6.277887360243502, "formattedAddress": ["100 Thomas Street", "Dublin", "Dublin City", "Ireland"], "location": {"type": "Point", "coordinates": [-6.277887360243502, 53.34381777011789]}}, {"name": "the english academy", "latitud": 53.352331069985276, "longitud": -6.260366722340645, "formattedAddress": ["Ireland"], "location": {"type": "Point", "coordinates": [-6.260366722340645, 53.352331069985276]}}, {"name": "Ec Dublin", "latitud": 53.32972, "longitud": -6.264732, "formattedAddress": ["Dublin", "Ireland"], "location": {"type": "Point", "coordinates": [-6.264732, 53.32972]}}, {"name": "Griffith College Dublin", "latitud": 53.33148432559922, "longitud": -6.278453647832611, "formattedAddress": ["S Circular Rd", "Dublin", "Dublin City", "Ireland"], "location": {"type": "Point", "coordinates": [-6.278453647832611, 53.33148432559922]}}, {"name": "ELA - English Language School : Build 2", "latitud": 53.35319103498161, "longitud": -6.26498634386267, "formattedAddress": ["Ireland"], "location": {"type": "Point", "coordinates": [-6.26498634386267, 53.35319103498161]}}, {"name": "English Language Academy Ireland", "latitud": 53.35061022507205, "longitud": -6.269550219033498, "formattedAddress": ["73 Capel St", "Dublin", "Dublin City", "Ireland"], "location": {"type": "Point", "coordinates": [-6.269550219033498, 53.35061022507205]}}, {"name": "Ibat College", "latitud": 53.355529, "longitud": -6.26483, "formattedAddress": ["24-27 North Frederick Street", "Dublin", "Ireland"], "location": {"type": "Point", "coordinates": [-6.26483, 53.355529]}}, {"name": "Agni Acting Studio", "latitud": 53.344928033435224, "longitud": -6.252529621124268, "formattedAddress": ["27 Pearse Street", "Dublin", "Dublin City", "Ireland"], "location": {"type": "Point", "coordinates": [-6.252529621124268, 53.344928033435224]}}, {"name": "Cooks Academy", "latitud": 53.34207211605773, "longitud": -6.262996716315025, "formattedAddress": ["19 Sth WIlliam St", "Dublin", "Dublin City", "Ireland"], "location": {"type": "Point", "coordinates": [-6.262996716315025, 53.34207211605773]}}, {"name": "Waltons New School of Music", "latitud": 53.34272800292431, "longitud": -6.264508017280357, "formattedAddress": ["69 Great Georges St", "Dublin", "Dublin City", "Ireland"], "location": {"type": "Point", "coordinates": [-6.264508017280357, 53.34272800292431]}}]