[{"name": "Britannia English Academy", "latitud": 53.47921849773795, "longitud": -2.239830731903953, "formattedAddress": ["Manchester", "Greater Manchester", "United Kingdom"], "location": {"type": "Point", "coordinates": [53.47921849773795, -2.239830731903953]}}, {"name": "EC Manchester", "latitud": 53.478121643039835, "longitud": -2.2364046324886058, "formattedAddress": ["17-21 Chorlton St.", "Manchester", "Greater Manchester", "M1 3HY", "United Kingdom"], "location": {"type": "Point", "coordinates": [53.478121643039835, -2.2364046324886058]}}, {"name": "Manchester Maths & English Tuition", "latitud": 53.4804229, "longitud": -2.2383618, "formattedAddress": ["13th floor, City Tower, Piccadilly Plaza", "Manchester", "Greater Manchester", "M1 4BT", "United Kingdom"], "location": {"type": "Point", "coordinates": [53.4804229, -2.2383618]}}, {"name": "Kaplan International English - Manchester", "latitud": 53.48046011, "longitud": -2.23470009, "formattedAddress": ["Portland Street", "Manchester", "Greater Manchester", "M1 3BE", "United Kingdom"], "location": {"type": "Point", "coordinates": [53.48046011, -2.23470009]}}, {"name": "Chetham's School Of Music", "latitud": 53.486594238267095, "longitud": -2.2433611191547804, "formattedAddress": ["Long Millgate", "Manchester", "M3 1SB", "United Kingdom"], "location": {"type": "Point", "coordinates": [53.486594238267095, -2.2433611191547804]}}, {"name": "Manchester Midi School", "latitud": 53.48351392995939, "longitud": -2.259308288185165, "formattedAddress": ["Salford", "M3", "United Kingdom"], "location": {"type": "Point", "coordinates": [53.48351392995939, -2.259308288185165]}}, {"name": "A2Z School of English", "latitud": 53.47910438340081, "longitud": -2.241444601684878, "formattedAddress": ["2nd Floor, 75 Mosley Street", "Lancashire", "M2 3HR", "United Kingdom"], "location": {"type": "Point", "coordinates": [53.47910438340081, -2.241444601684878]}}, {"name": "New College Group (NCG)", "latitud": 53.48001444979183, "longitud": -2.2358251600822094, "formattedAddress": ["85 Piccadilly", "Manchester", "Greater Manchester", "M1 2DA", "United Kingdom"], "location": {"type": "Point", "coordinates": [53.48001444979183, -2.2358251600822094]}}, {"name": "INTO Manchester", "latitud": 53.475368895964245, "longitud": -2.240188846018999, "formattedAddress": ["58/60 Whitworth Street (Oxford Road)", "Manchester", "Greater Manchester", "M1 6BB", "United Kingdom"], "location": {"type": "Point", "coordinates": [53.475368895964245, -2.240188846018999]}}, {"name": "Alliance Manchester Business School", "latitud": 53.467789, "longitud": -2.235507, "formattedAddress": ["142 Oxford Road", "Manchester", "Greater Manchester", "M13 9RN", "United Kingdom"], "location": {"type": "Point", "coordinates": [53.467789, -2.235507]}}, {"name": "Manchester surgical skills workshop", "latitud": 53.4714067, "longitud": -2.2376540000000205, "formattedAddress": ["99 Oxford Rd", "Manchester", "Greater Manchester", "M13 9PG", "United Kingdom"], "location": {"type": "Point", "coordinates": [53.4714067, -2.2376540000000205]}}, {"name": "Williamson Building", "latitud": 53.46643303211906, "longitud": -2.2333282365125964, "formattedAddress": ["University of Manchester (Oxford road)", "Manchester, Greater Manchester", "M13 9PL", "United Kingdom"], "location": {"type": "Point", "coordinates": [53.46643303211906, -2.2333282365125964]}}, {"name": "Kilburn Building, School of Computer Science and IT Services", "latitud": 53.467524, "longitud": -2.233915, "formattedAddress": ["Oxford Road (University of Manchester)", "Manchester", "Greater Manchester", "M13 9PL", "United Kingdom"], "location": {"type": "Point", "coordinates": [53.467524, -2.233915]}}, {"name": "Communicate School of English", "latitud": 53.4819994547731, "longitud": -2.2394086453315163, "formattedAddress": ["Murray House (85 Piccadilly)", "M1 2DA", "United Kingdom"], "location": {"type": "Point", "coordinates": [53.4819994547731, -2.2394086453315163]}}, {"name": "Manchester Central School of English", "latitud": 53.481680311665265, "longitud": -2.2384070065336936, "formattedAddress": ["2nd Floor, Royal Buildings, 2 Mosley St", "Manchester", "Greater Manchester", "M2 3AN", "United Kingdom"], "location": {"type": "Point", "coordinates": [53.481680311665265, -2.2384070065336936]}}, {"name": "Samuel Alexander Building", "latitud": 53.46417857288448, "longitud": -2.2331098544387067, "formattedAddress": ["University of Manchester, Oxford Road (Burlington Street)", "Manchester, Greater Manchester", "United Kingdom"], "location": {"type": "Point", "coordinates": [53.46417857288448, -2.2331098544387067]}}, {"name": "Cactus Manchester Language School", "latitud": 53.481099659057186, "longitud": -2.234494686126709, "formattedAddress": ["Near St Margaret's Chambers (5 Newton Street)", "Manchester", "M1 1HL", "United Kingdom"], "location": {"type": "Point", "coordinates": [53.481099659057186, -2.234494686126709]}}, {"name": "New Islington Free School", "latitud": 53.48597097985235, "longitud": -2.223090850016197, "formattedAddress": ["United Kingdom"], "location": {"type": "Point", "coordinates": [53.48597097985235, -2.223090850016197]}}, {"name": "Maxell building room 516", "latitud": 53.48469055000001, "longitud": -2.2711873054504395, "formattedAddress": ["Salford Busines School, Executive Education (43 The Crescent)", "Salford", "M5 4WT", "United Kingdom"], "location": {"type": "Point", "coordinates": [53.48469055000001, -2.2711873054504395]}}, {"name": "Maxwell Building", "latitud": 53.48452051771575, "longitud": -2.271049727482621, "formattedAddress": ["University of Salford (43 The Crescent)", "Manchester", "M5 3WT", "United Kingdom"], "location": {"type": "Point", "coordinates": [53.48452051771575, -2.271049727482621]}}, {"name": "Google Digital Garage", "latitud": 53.4811, "longitud": -2.2452044, "formattedAddress": ["39 king st", "Manchester", "Greater Manchester", "M2 4ND", "United Kingdom"], "location": {"type": "Point", "coordinates": [53.4811, -2.2452044]}}, {"name": "BPP Professional Education", "latitud": 53.47814516026781, "longitud": -2.2369597097950202, "formattedAddress": ["St. James's Bldg 79 Oxford St", "Manchester", "Greater Manchester", "M1 6FQ", "United Kingdom"], "location": {"type": "Point", "coordinates": [53.47814516026781, -2.2369597097950202]}}, {"name": "Primal Voice", "latitud": 53.4867748, "longitud": -2.2509863000000223, "formattedAddress": ["Queen Street", "Salford", "M3 7DQ", "United Kingdom"], "location": {"type": "Point", "coordinates": [53.4867748, -2.2509863000000223]}}]